[
    {
        "id": "DAL",
        "name": "Dallas Love Field",
        "city": "Dallas",
        "country": "United States of America",
        "continent": "North America",
        "size": 7,
        "coordinates": {
            "latitude": 32.848308,
            "longitude": -96.85155
        }
    },
    {
        "id": "LAX",
        "name": "Los Angeles International Airport",
        "city": "Los Angeles",
        "country": "United States of America",
        "continent": "North America",
        "size": 18,
        "coordinates": {
            "latitude": 33.941589,
            "longitude": -118.408541
        }
    },
    {
        "id": "JFK",
        "name": "John F. Kennedy International Airport",
        "city": "New York City",
        "country": "United States of America",
        "continent": "North America",
        "size": 24,
        "coordinates": {
            "latitude": 40.6413111,
            "longitude": -73.7781391
        }
    },
    {
        "id": "ORD",
        "name": "O'Hare International Airport",
        "city": "Chicago",
        "country": "United States of America",
        "continent": "North America",
        "size": 10,
        "coordinates": {
            "latitude": 41.973971,
            "longitude": -87.907836
        }
    },
    {
        "id": "BWI",
        "name": "Baltimore\u2013Washington International Airport",
        "city": "Baltimore",
        "country": "United States of America",
        "continent": "North America",
        "size": 10,
        "coordinates": {
            "latitude": 39.176905,
            "longitude": -76.668618
        }
    },
    {
        "id": "BOS",
        "name": "Logan International Airport",
        "city": "Boston",
        "country": "United States of America",
        "continent": "North America",
        "size": 8,
        "coordinates": {
            "latitude": 42.365328,
            "longitude": -71.009861
        }
    },
    {
        "id": "PHL",
        "name": "Philadelphia International Airport",
        "city": "Philadelphia",
        "country": "United States of America",
        "continent": "North America",
        "size": 8,
        "coordinates": {
            "latitude": 39.874643,
            "longitude": -75.24327
        }
    },
    {
        "id": "IAH",
        "name": "George Bush Intercontinental Airport",
        "city": "Houston",
        "country": "United States of America",
        "continent": "North America",
        "size": 8,
        "coordinates": {
            "latitude": 29.990443,
            "longitude": -95.337094
        }
    },
    {
        "id": "MIA",
        "name": "Miami International Airport",
        "city": "Miami",
        "country": "United States of America",
        "continent": "North America",
        "size": 7,
        "coordinates": {
            "latitude": 25.796152,
            "longitude": -80.287748
        }
    },
    {
        "id": "MEX",
        "name": "Mexico City International Airport",
        "city": "Mexico City",
        "country": "Mexico",
        "continent": "North America",
        "size": 20,
        "coordinates": {
            "latitude": 19.4360762,
            "longitude": -99.074097
        }
    },
    {
        "id": "YYZ",
        "name": "Toronto Pearson International Airport",
        "city": "Toronto",
        "country": "Canada",
        "continent": "North America",
        "size": 6,
        "coordinates": {
            "latitude": 43.6777176,
            "longitude": -79.6270084
        }
    },
    {
        "id": "EZE",
        "name": "Ministro Pistarini International Airport",
        "city": "Buenos Aires",
        "country": "Argentina",
        "continent": "South America",
        "size": 16,
        "coordinates": {
            "latitude": -34.814898,
            "longitude": -58.534957
        }
    },
    {
        "id": "BOG",
        "name": "El Dorado International Airport",
        "city": "Bogota",
        "country": "Colombia",
        "continent": "South America",
        "size": 10,
        "coordinates": {
            "latitude": 4.6989653,
            "longitude": -74.1437703
        }
    },
    {
        "id": "SDU",
        "name": "Santos Dumont Airport",
        "city": "Rio de Janeiro",
        "country": "Brazil",
        "continent": "South America",
        "size": 12,
        "coordinates": {
            "latitude": -22.9111438,
            "longitude": -43.1670642
        }
    },
    {
        "id": "GRU",
        "name": "Sao Paulo International Airport",
        "city": "Sao Paulo",
        "country": "Brazil",
        "continent": "South America",
        "size": 24,
        "coordinates": {
            "latitude": -23.430186,
            "longitude": -46.473044
        }
    },
    {
        "id": "LIM",
        "name": "Jorge Chavez International Airport",
        "city": "Lima",
        "country": "Peru",
        "continent": "South America",
        "size": 10,
        "coordinates": {
            "latitude": -12.0240527,
            "longitude": -77.1142247
        }
    },
    {
        "id": "SCL",
        "name": "Santiago International Airport",
        "city": "Santiago",
        "country": "Chile",
        "continent": "South America",
        "size": 7,
        "coordinates": {
            "latitude": -33.3967262,
            "longitude": -70.7957537
        }
    },
    {
        "id": "LHR",
        "name": "Heathrow Airport",
        "city": "London",
        "country": "England",
        "continent": "Europe",
        "size": 14,
        "coordinates": {
            "latitude": 51.4700223,
            "longitude": -0.4564842
        }
    },
    {
        "id": "DUS",
        "name": "Dusseldorf Airport",
        "city": "Rhine-Ruhr",
        "country": "Germany",
        "continent": "Europe",
        "size": 11,
        "coordinates": {
            "latitude": 51.28746,
            "longitude": 6.766105
        }
    },
    {
        "id": "CDG",
        "name": "Paris Charles de Gaulle Airport",
        "city": "Paris",
        "country": "France",
        "continent": "Europe",
        "size": 12,
        "coordinates": {
            "latitude": 49.0096906,
            "longitude": 2.5457358
        }
    },
    {
        "id": "IST",
        "name": "Istanbul Ataturk Airport",
        "city": "Istanbul",
        "country": "Turkey",
        "continent": "Europe",
        "size": 14,
        "coordinates": {
            "latitude": 40.9829888,
            "longitude": 28.8082538
        }
    },
    {
        "id": "MXP",
        "name": "Milan Malpensa Airport",
        "city": "Milan",
        "country": "Italy",
        "continent": "Europe",
        "size": 9,
        "coordinates": {
            "latitude": 45.629897,
            "longitude": 8.72464
        }
    },
    {
        "id": "SVO",
        "name": "Sheremetyevo International Airport",
        "city": "Moscow",
        "country": "Russia",
        "continent": "Europe",
        "size": 17,
        "coordinates": {
            "latitude": 55.9736482,
            "longitude": 37.4103142
        }
    },
    {
        "id": "AMS",
        "name": "Amsterdam Airport Schiphol",
        "city": "Amsterdam",
        "country": "Netherlands",
        "continent": "Europe",
        "size": 3,
        "coordinates": {
            "latitude": 52.3255264,
            "longitude": 4.6872439
        }
    },
    {
        "id": "MAD",
        "name": "Adolfo Suarez Madrid\u2013Barajas Airport",
        "city": "Madrid",
        "country": "Spain",
        "continent": "Europe",
        "size": 6,
        "coordinates": {
            "latitude": 40.4839361,
            "longitude": -3.5701402
        }
    },
    {
        "id": "HND",
        "name": "Tokyo International Airport",
        "city": "Tokyo",
        "country": "Japan",
        "continent": "Asia",
        "size": 38,
        "coordinates": {
            "latitude": 35.5493932,
            "longitude": 139.7776499
        }
    },
    {
        "id": "KIX",
        "name": "Kansai International Airport",
        "city": "Osaka",
        "country": "Japan",
        "continent": "Asia",
        "size": 20,
        "coordinates": {
            "latitude": 34.432091,
            "longitude": 135.230372
        }
    },
    {
        "id": "KHI",
        "name": "Jinnah International Airport",
        "city": "Karachi",
        "country": "Pakistan",
        "continent": "Asia",
        "size": 24,
        "coordinates": {
            "latitude": 24.900457,
            "longitude": 67.1659709
        }
    },
    {
        "id": "IKA",
        "name": "Imam Khomeini International Airport",
        "city": "Tehran",
        "country": "Iran",
        "continent": "Asia",
        "size": 14,
        "coordinates": {
            "latitude": 35.409536,
            "longitude": 51.159159
        }
    },
    {
        "id": "RUH",
        "name": "King Khalid International Airport",
        "city": "Riyadh",
        "country": "Saudi Arabia",
        "continent": "Asia",
        "size": 8,
        "coordinates": {
            "latitude": 24.959794,
            "longitude": 46.699691
        }
    },
    {
        "id": "ICN",
        "name": "Incheon International Airport",
        "city": "Seoul",
        "country": "South Korea",
        "continent": "Asia",
        "size": 26,
        "coordinates": {
            "latitude": 37.4601908,
            "longitude": 126.438507
        }
    },
    {
        "id": "HKG",
        "name": "Hong Kong International Airport",
        "city": "Hong Kong",
        "country": "China",
        "continent": "Asia",
        "size": 8,
        "coordinates": {
            "latitude": 22.306952,
            "longitude": 113.919641
        }
    },
    {
        "id": "PVG",
        "name": "Shanghai Pudong International Airport",
        "city": "Shanghai",
        "country": "China",
        "continent": "Asia",
        "size": 34,
        "coordinates": {
            "latitude": 31.1443439,
            "longitude": 121.8060843
        }
    },
    {
        "id": "CAN",
        "name": "Guangzhou Baiyun International Airport",
        "city": "Guangzhou",
        "country": "China",
        "continent": "Asia",
        "size": 25,
        "coordinates": {
            "latitude": 23.395923,
            "longitude": 113.307835
        }
    },
    {
        "id": "PEK",
        "name": "Beijing Capital International Airport",
        "city": "Beijing",
        "country": "China",
        "continent": "Asia",
        "size": 24,
        "coordinates": {
            "latitude": 40.079927,
            "longitude": 116.603289
        }
    },
    {
        "id": "SZX",
        "name": "Shenzhen Bao'an International Airport",
        "city": "Shenzhen",
        "country": "China",
        "continent": "Asia",
        "size": 24,
        "coordinates": {
            "latitude": 22.641935,
            "longitude": 113.815838
        }
    },
    {
        "id": "DEL",
        "name": "Indira Gandhi International Airport",
        "city": "New Delhi",
        "country": "India",
        "continent": "Asia",
        "size": 22,
        "coordinates": {
            "latitude": 28.5561624,
            "longitude": 77.0977691
        }
    },
    {
        "id": "BOM",
        "name": "Chhatrapati Shivaji International Airport",
        "city": "Mumbai",
        "country": "India",
        "continent": "Asia",
        "size": 21,
        "coordinates": {
            "latitude": 19.091161,
            "longitude": 72.86555
        }
    },
    {
        "id": "MNL",
        "name": "Ninoy Aquino International Airport",
        "city": "Manila",
        "country": "Philippines",
        "continent": "Asia",
        "size": 12,
        "coordinates": {
            "latitude": 14.5122739,
            "longitude": 121.0143193
        }
    },
    {
        "id": "CGK",
        "name": "Soekarno\u2013Hatta International Airport",
        "city": "Jakarta",
        "country": "Indonesia",
        "continent": "Asia",
        "size": 10,
        "coordinates": {
            "latitude": -6.1204706,
            "longitude": 106.6579084
        }
    },
    {
        "id": "SUB",
        "name": "Juanda International Airport",
        "city": "Sedati",
        "country": "Indonesia",
        "continent": "Asia",
        "size": 10,
        "coordinates": {
            "latitude": -7.378768,
            "longitude": 112.787289
        }
    },
    {
        "id": "FIH",
        "name": "N'djili Airport",
        "city": "Kinshasa",
        "country": "Democratic Republic of the Congo",
        "continent": "Africa",
        "size": 12,
        "coordinates": {
            "latitude": -4.389095,
            "longitude": 15.446166
        }
    },
    {
        "id": "LOS",
        "name": "Murtala Muhammed International Airport",
        "city": "Lagos",
        "country": "Nigeria",
        "continent": "Africa",
        "size": 25,
        "coordinates": {
            "latitude": 6.5818185,
            "longitude": 3.3189461
        }
    },
    {
        "id": "CAI",
        "name": "Cairo International Airport",
        "city": "Cairo",
        "country": "Egypt",
        "continent": "Africa",
        "size": 20,
        "coordinates": {
            "latitude": 30.111389,
            "longitude": 31.4117003
        }
    },
    {
        "id": "JNB",
        "name": "O. R. Tambo International Airport",
        "city": "Johannesburg",
        "country": "South Africa",
        "continent": "Africa",
        "size": 4,
        "coordinates": {
            "latitude": -26.1366728,
            "longitude": 28.2389572
        }
    },
    {
        "id": "SYD",
        "name": "Sydney Airport",
        "city": "Sydney",
        "country": "Australia",
        "continent": "Australia",
        "size": 5,
        "coordinates": {
            "latitude": -33.9399228,
            "longitude": 151.1730877
        }
    },
    {
        "id": "MEL",
        "name": "Melbourne Airport",
        "city": "Melbourne",
        "country": "Australia",
        "continent": "Australia",
        "size": 4,
        "coordinates": {
            "latitude": -37.6690123,
            "longitude": 144.8388386
        }
    },
    {
        "id": "BNE",
        "name": "Brisbane Airport",
        "city": "Brisbane",
        "country": "Australia",
        "continent": "Australia",
        "size": 2,
        "coordinates": {
            "latitude": -27.3942144,
            "longitude": 153.1196416
        }
    },
    {
        "id": "YKZ",
        "name": "Buttonville Municipal Airport",
        "city": "Toronto",
        "country": "Canada",
        "continent": "America",
        "size": 6,
        "coordinates": {
            "latitude": 43.8622016907,
            "longitude": -79.3700027466
        }
    },
    {
        "id": "YQY",
        "name": "Sydney-J.A. Douglas McCurdy Airport",
        "city": "Sydney",
        "country": "Canada",
        "continent": "America",
        "size": 5,
        "coordinates": {
            "latitude": 46.1613998413,
            "longitude": -60.0477981567
        }
    },
    {
        "id": "YTZ",
        "name": "Billy Bishop Toronto City Centre Airport",
        "city": "Toronto",
        "country": "Canada",
        "continent": "America",
        "size": 6,
        "coordinates": {
            "latitude": 43.6274986267,
            "longitude": -79.3962020874
        }
    },
    {
        "id": "YZD",
        "name": "Downsview Airport",
        "city": "Toronto",
        "country": "Canada",
        "continent": "America",
        "size": 6,
        "coordinates": {
            "latitude": 43.7425003052,
            "longitude": -79.4655990601
        }
    },
    {
        "id": "ABJ",
        "name": "Port Bouet Airport",
        "city": "Abidjan",
        "country": "Ivory Coast",
        "continent": "Africa",
        "size": 5,
        "coordinates": {
            "latitude": 5.2613902092,
            "longitude": -3.9262900352
        }
    },
    {
        "id": "LTN",
        "name": "London Luton Airport",
        "city": "London",
        "country": "United Kingdom",
        "continent": "Europe",
        "size": 10,
        "coordinates": {
            "latitude": 51.8746986389,
            "longitude": -0.3683330119
        }
    },
    {
        "id": "BQH",
        "name": "London Biggin Hill Airport",
        "city": "London",
        "country": "United Kingdom",
        "continent": "Europe",
        "size": 10,
        "coordinates": {
            "latitude": 51.3307991028,
            "longitude": 0.0324999988
        }
    },
    {
        "id": "LGW",
        "name": "London Gatwick Airport",
        "city": "London",
        "country": "United Kingdom",
        "continent": "Europe",
        "size": 10,
        "coordinates": {
            "latitude": 51.1481018066,
            "longitude": -0.1902779937
        }
    },
    {
        "id": "LCY",
        "name": "London City Airport",
        "city": "London",
        "country": "United Kingdom",
        "continent": "Europe",
        "size": 10,
        "coordinates": {
            "latitude": 51.5052986145,
            "longitude": 0.0552779995
        }
    },
    {
        "id": "STN",
        "name": "London Stansted Airport",
        "city": "London",
        "country": "United Kingdom",
        "continent": "Europe",
        "size": 10,
        "coordinates": {
            "latitude": 51.8849983215,
            "longitude": 0.2349999994
        }
    },
    {
        "id": "NHT",
        "name": "RAF Northolt",
        "city": "London",
        "country": "United Kingdom",
        "continent": "Europe",
        "size": 10,
        "coordinates": {
            "latitude": 51.5530014038,
            "longitude": -0.418166995
        }
    },
    {
        "id": "QRA",
        "name": "Rand Airport",
        "city": "Johannesburg",
        "country": "South Africa",
        "continent": "Africa",
        "size": 9,
        "coordinates": {
            "latitude": -26.2425003052,
            "longitude": 28.1511993408
        }
    },
    {
        "id": "HLA",
        "name": "Lanseria Airport",
        "city": "Johannesburg",
        "country": "South Africa",
        "continent": "Africa",
        "size": 9,
        "coordinates": {
            "latitude": -25.9384994507,
            "longitude": 27.9260997772
        }
    },
    {
        "id": "LAD",
        "name": "Quatro De Fevereiro Airport",
        "city": "Luanda",
        "country": "Angola",
        "continent": "Africa",
        "size": 6,
        "coordinates": {
            "latitude": -8.8583698273,
            "longitude": 13.2312002182
        }
    },
    {
        "id": "ALY",
        "name": "El Nouzha Airport",
        "city": "Alexandria",
        "country": "Egypt",
        "continent": "Africa",
        "size": 5,
        "coordinates": {
            "latitude": 31.1839008331,
            "longitude": 29.9489002228
        }
    },
    {
        "id": "HBE",
        "name": "Borg El Arab International Airport",
        "city": "Alexandria",
        "country": "Egypt",
        "continent": "Africa",
        "size": 5,
        "coordinates": {
            "latitude": 30.9176998138,
            "longitude": 29.6963996887
        }
    },
    {
        "id": "AEX",
        "name": "Alexandria International Airport",
        "city": "Alexandria",
        "country": "United States",
        "continent": "America",
        "size": 5,
        "coordinates": {
            "latitude": 31.3274002075,
            "longitude": -92.5497970581
        }
    },
    {
        "id": "AOH",
        "name": "Lima Allen County Airport",
        "city": "Lima",
        "country": "United States",
        "continent": "America",
        "size": 10,
        "coordinates": {
            "latitude": 40.7069015503,
            "longitude": -84.0267028809
        }
    },
    {
        "id": "ATL",
        "name": "Hartsfield Jackson Atlanta International Airport",
        "city": "Atlanta",
        "country": "United States",
        "continent": "America",
        "size": 5,
        "coordinates": {
            "latitude": 33.6366996765,
            "longitude": -84.4281005859
        }
    },
    {
        "id": "AXN",
        "name": "Chandler Field",
        "city": "Alexandria",
        "country": "United States",
        "continent": "America",
        "size": 5,
        "coordinates": {
            "latitude": 45.8662986755,
            "longitude": -95.3946990967
        }
    },
    {
        "id": "CXO",
        "name": "Lone Star Executive Airport",
        "city": "Houston",
        "country": "United States",
        "continent": "America",
        "size": 6,
        "coordinates": {
            "latitude": 30.3518009186,
            "longitude": -95.4144973755
        }
    },
    {
        "id": "DFW",
        "name": "Dallas Fort Worth International Airport",
        "city": "Dallas-Fort Worth",
        "country": "United States",
        "continent": "America",
        "size": 6,
        "coordinates": {
            "latitude": 32.8968009949,
            "longitude": -97.0380020142
        }
    },
    {
        "id": "DWH",
        "name": "David Wayne Hooks Memorial Airport",
        "city": "Houston",
        "country": "United States",
        "continent": "America",
        "size": 6,
        "coordinates": {
            "latitude": 30.0618000031,
            "longitude": -95.5528030396
        }
    },
    {
        "id": "BGT",
        "name": "Bagdad Airport",
        "city": "Bagdad",
        "country": "United States",
        "continent": "America",
        "size": 7,
        "coordinates": {
            "latitude": 34.5959014893,
            "longitude": -113.1699981689
        }
    },
    {
        "id": "EFD",
        "name": "Ellington Field",
        "city": "Houston",
        "country": "United States",
        "continent": "America",
        "size": 6,
        "coordinates": {
            "latitude": 29.6072998047,
            "longitude": -95.1587982178
        }
    },
    {
        "id": "ESF",
        "name": "Esler Regional Airport",
        "city": "Alexandria",
        "country": "United States",
        "continent": "America",
        "size": 5,
        "coordinates": {
            "latitude": 31.3948993683,
            "longitude": -92.2957992554
        }
    },
    {
        "id": "FTY",
        "name": "Fulton County Airport Brown Field",
        "city": "Atlanta",
        "country": "United States",
        "continent": "America",
        "size": 5,
        "coordinates": {
            "latitude": 33.7790985107,
            "longitude": -84.5214004517
        }
    },
    {
        "id": "HOU",
        "name": "William P Hobby Airport",
        "city": "Houston",
        "country": "United States",
        "continent": "America",
        "size": 6,
        "coordinates": {
            "latitude": 29.64539909,
            "longitude": -95.27890015
        }
    },
    {
        "id": "IWS",
        "name": "West Houston Airport",
        "city": "Houston",
        "country": "United States",
        "continent": "America",
        "size": 6,
        "coordinates": {
            "latitude": 29.8181991577,
            "longitude": -95.6725997925
        }
    },
    {
        "id": "BBX",
        "name": "Wings Field",
        "city": "Philadelphia",
        "country": "United States",
        "continent": "America",
        "size": 6,
        "coordinates": {
            "latitude": 40.1375007629,
            "longitude": -75.2650985718
        }
    },
    {
        "id": "MDW",
        "name": "Chicago Midway International Airport",
        "city": "Chicago",
        "country": "United States",
        "continent": "America",
        "size": 9,
        "coordinates": {
            "latitude": 41.7859992981,
            "longitude": -87.7524032593
        }
    },
    {
        "id": "MIO",
        "name": "Miami Municipal Airport",
        "city": "Miami",
        "country": "United States",
        "continent": "America",
        "size": 6,
        "coordinates": {
            "latitude": 36.909198761,
            "longitude": -94.8874969482
        }
    },
    {
        "id": "MLB",
        "name": "Melbourne International Airport",
        "city": "Melbourne",
        "country": "United States",
        "continent": "America",
        "size": 5,
        "coordinates": {
            "latitude": 28.1028003693,
            "longitude": -80.6453018188
        }
    },
    {
        "id": "MXA",
        "name": "Manila Municipal Airport",
        "city": "Manila",
        "country": "United States",
        "continent": "America",
        "size": 12,
        "coordinates": {
            "latitude": 35.8944015503,
            "longitude": -90.1546020508
        }
    },
    {
        "id": "OPF",
        "name": "Opa-locka Executive Airport",
        "city": "Miami",
        "country": "United States",
        "continent": "America",
        "size": 6,
        "coordinates": {
            "latitude": 25.90699959,
            "longitude": -80.27839661
        }
    },
    {
        "id": "PDK",
        "name": "DeKalb Peachtree Airport",
        "city": "Atlanta",
        "country": "United States",
        "continent": "America",
        "size": 5,
        "coordinates": {
            "latitude": 33.8755989075,
            "longitude": -84.3020019531
        }
    },
    {
        "id": "PHT",
        "name": "Henry County Airport",
        "city": "Paris",
        "country": "United States",
        "continent": "America",
        "size": 10,
        "coordinates": {
            "latitude": 36.3381996155,
            "longitude": -88.3828964233
        }
    },
    {
        "id": "PNE",
        "name": "Northeast Philadelphia Airport",
        "city": "Philadelphia",
        "country": "United States",
        "continent": "America",
        "size": 6,
        "coordinates": {
            "latitude": 40.08190155,
            "longitude": -75.01059723
        }
    },
    {
        "id": "PRX",
        "name": "Cox Field",
        "city": "Paris",
        "country": "United States",
        "continent": "America",
        "size": 10,
        "coordinates": {
            "latitude": 33.6366004944,
            "longitude": -95.4507980347
        }
    },
    {
        "id": "SGR",
        "name": "Sugar Land Regional Airport",
        "city": "Houston",
        "country": "United States",
        "continent": "America",
        "size": 6,
        "coordinates": {
            "latitude": 29.6222991943,
            "longitude": -95.65650177
        }
    },
    {
        "id": "TMB",
        "name": "Miami Executive Airport",
        "city": "Miami",
        "country": "United States",
        "continent": "America",
        "size": 6,
        "coordinates": {
            "latitude": 25.6475637,
            "longitude": -80.4332246
        }
    },
    {
        "id": "TNT",
        "name": "Dade Collier Training and Transition Airport",
        "city": "Miami",
        "country": "United States",
        "continent": "America",
        "size": 6,
        "coordinates": {
            "latitude": 25.8617992401,
            "longitude": -80.8970031738
        }
    },
    {
        "id": "BCN",
        "name": "Barcelona International Airport",
        "city": "Barcelona",
        "country": "Spain",
        "continent": "Europe",
        "size": 5,
        "coordinates": {
            "latitude": 41.2971000671,
            "longitude": 2.0784599781
        }
    },
    {
        "id": "ECV",
        "name": "Cuatro Vientos Airport",
        "city": "Madrid",
        "country": "Spain",
        "continent": "Europe",
        "size": 6,
        "coordinates": {
            "latitude": 40.3707008362,
            "longitude": -3.7851400375
        }
    },
    {
        "id": "TOJ",
        "name": "Torrejon Airport",
        "city": "Madrid",
        "country": "Spain",
        "continent": "Europe",
        "size": 6,
        "coordinates": {
            "latitude": 40.4967002869,
            "longitude": -3.4458699226
        }
    },
    {
        "id": "LBG",
        "name": "Paris-Le Bourget Airport",
        "city": "Paris",
        "country": "France",
        "continent": "Europe",
        "size": 10,
        "coordinates": {
            "latitude": 48.9693984985,
            "longitude": 2.4413900375
        }
    },
    {
        "id": "ORY",
        "name": "Paris-Orly Airport",
        "city": "Paris",
        "country": "France",
        "continent": "Europe",
        "size": 10,
        "coordinates": {
            "latitude": 48.7252998352,
            "longitude": 2.3594400883
        }
    },
    {
        "id": "ESB",
        "name": "Esenboga International Airport",
        "city": "Ankara",
        "country": "Turkey",
        "continent": "Europe",
        "size": 5,
        "coordinates": {
            "latitude": 40.1281013489,
            "longitude": 32.995098114
        }
    },
    {
        "id": "ANK",
        "name": "Etimesgut Air Base",
        "city": "Ankara",
        "country": "Turkey",
        "continent": "Europe",
        "size": 5,
        "coordinates": {
            "latitude": 39.949798584,
            "longitude": 32.6885986328
        }
    },
    {
        "id": "SAW",
        "name": "Sabiha Gokcen International Airport",
        "city": "Istanbul",
        "country": "Turkey",
        "continent": "Europe",
        "size": 14,
        "coordinates": {
            "latitude": 40.898601532,
            "longitude": 29.3092002869
        }
    },
    {
        "id": "GDL",
        "name": "Don Miguel Hidalgo Y Costilla International Airport",
        "city": "Guadalajara",
        "country": "Mexico",
        "continent": "America",
        "size": 5,
        "coordinates": {
            "latitude": 20.5217990875,
            "longitude": -103.3109970093
        }
    },
    {
        "id": "MTY",
        "name": "General Mariano Escobedo International Airport",
        "city": "Monterrey",
        "country": "Mexico",
        "continent": "America",
        "size": 5,
        "coordinates": {
            "latitude": 25.7784996033,
            "longitude": -100.107002258
        }
    },
    {
        "id": "KBL",
        "name": "Kabul International Airport",
        "city": "Kabul",
        "country": "Afghanistan",
        "continent": "Asia",
        "size": 5,
        "coordinates": {
            "latitude": 34.5658988953,
            "longitude": 69.2123031616
        }
    },
    {
        "id": "HDD",
        "name": "Hyderabad Airport",
        "city": "Hyderabad",
        "country": "Pakistan",
        "continent": "Asia",
        "size": 9,
        "coordinates": {
            "latitude": 25.3180999756,
            "longitude": 68.3660964966
        }
    },
    {
        "id": "LHE",
        "name": "Alama Iqbal International Airport",
        "city": "Lahore",
        "country": "Pakistan",
        "continent": "Asia",
        "size": 9,
        "coordinates": {
            "latitude": 31.5216007233,
            "longitude": 74.4036026001
        }
    },
    {
        "id": "FUK",
        "name": "Fukuoka Airport",
        "city": "Fukuoka",
        "country": "Japan",
        "continent": "Asia",
        "size": 5,
        "coordinates": {
            "latitude": 33.585899353,
            "longitude": 130.4510040283
        }
    },
    {
        "id": "NKM",
        "name": "Nagoya Airport",
        "city": "Nagoya",
        "country": "Japan",
        "continent": "Asia",
        "size": 9,
        "coordinates": {
            "latitude": 35.2550010681,
            "longitude": 136.9239959717
        }
    },
    {
        "id": "GMP",
        "name": "Gimpo International Airport",
        "city": "Seoul",
        "country": "South Korea",
        "continent": "Asia",
        "size": 10,
        "coordinates": {
            "latitude": 37.5583000183,
            "longitude": 126.791000366
        }
    },
    {
        "id": "AEP",
        "name": "Jorge Newbery Airpark",
        "city": "Buenos Aires",
        "country": "Argentina",
        "continent": "America",
        "size": 15,
        "coordinates": {
            "latitude": -34.5592,
            "longitude": -58.4156
        }
    },
    {
        "id": "PLU",
        "name": "Pampulha - Carlos Drummond de Andrade Airport",
        "city": "Belo Horizonte",
        "country": "Brazil",
        "continent": "America",
        "size": 5,
        "coordinates": {
            "latitude": -19.8512001038,
            "longitude": -43.9505996704
        }
    },
    {
        "id": "CNF",
        "name": "Tancredo Neves International Airport",
        "city": "Belo Horizonte",
        "country": "Brazil",
        "continent": "America",
        "size": 5,
        "coordinates": {
            "latitude": -19.6244430542,
            "longitude": -43.9719429016
        }
    },
    {
        "id": "SAO",
        "name": "Campo de Marte Airport",
        "city": "Sao Paulo",
        "country": "Brazil",
        "continent": "America",
        "size": 21,
        "coordinates": {
            "latitude": -23.5090999603,
            "longitude": -46.6377983093
        }
    },
    {
        "id": "CGH",
        "name": "Congonhas Airport",
        "city": "Sao Paulo",
        "country": "Brazil",
        "continent": "America",
        "size": 21,
        "coordinates": {
            "latitude": -23.6261100769,
            "longitude": -46.6563873291
        }
    },
    {
        "id": "BLA",
        "name": "General Jose Antonio Anzoategui International Airport",
        "city": "Barcelona",
        "country": "Venezuela",
        "continent": "America",
        "size": 5,
        "coordinates": {
            "latitude": 10.1070995331,
            "longitude": -64.689201355
        }
    },
    {
        "id": "AMD",
        "name": "Sardar Vallabhbhai Patel International Airport",
        "city": "Ahmedabad",
        "country": "India",
        "continent": "Asia",
        "size": 7,
        "coordinates": {
            "latitude": 23.0771999359,
            "longitude": 72.6346969604
        }
    },
    {
        "id": "PNQ",
        "name": "Pune Airport",
        "city": "Pune",
        "country": "India",
        "continent": "Asia",
        "size": 6,
        "coordinates": {
            "latitude": 18.5820999146,
            "longitude": 73.9197006226
        }
    },
    {
        "id": "CGP",
        "name": "Shah Amanat International Airport",
        "city": "Chittagong",
        "country": "Bangladesh",
        "continent": "Asia",
        "size": 5,
        "coordinates": {
            "latitude": 22.2495994568,
            "longitude": 91.8133010864
        }
    },
    {
        "id": "DAC",
        "name": "Dhaka-Hazrat Shahjalal International Airport",
        "city": "Dhaka",
        "country": "Bangladesh",
        "continent": "Asia",
        "size": 17,
        "coordinates": {
            "latitude": 23.843347,
            "longitude": 90.397783
        }
    },
    {
        "id": "HYD",
        "name": "Rajiv Gandhi International Airport Shamshabad",
        "city": "Hyderabad",
        "country": "India",
        "continent": "Asia",
        "size": 9,
        "coordinates": {
            "latitude": 17.2313175201,
            "longitude": 78.4298553467
        }
    },
    {
        "id": "BPM",
        "name": "Begumpet Airport",
        "city": "Hyderabad",
        "country": "India",
        "continent": "Asia",
        "size": 9,
        "coordinates": {
            "latitude": 17.4531002045,
            "longitude": 78.4675979614
        }
    },
    {
        "id": "MAA",
        "name": "Chennai International Airport",
        "city": "Chennai",
        "country": "India",
        "continent": "Asia",
        "size": 10,
        "coordinates": {
            "latitude": 12.9900054932,
            "longitude": 80.1692962646
        }
    },
    {
        "id": "DMK",
        "name": "Don Mueang International Airport",
        "city": "Bangkok",
        "country": "Thailand",
        "continent": "Asia",
        "size": 9,
        "coordinates": {
            "latitude": 13.9125995636,
            "longitude": 100.6070022583
        }
    },
    {
        "id": "BKK",
        "name": "Suvarnabhumi Airport",
        "city": "Bangkok",
        "country": "Thailand",
        "continent": "Asia",
        "size": 9,
        "coordinates": {
            "latitude": 13.6810998917,
            "longitude": 100.7470016479
        }
    },
    {
        "id": "HLP",
        "name": "Halim Perdanakusuma International Airport",
        "city": "Jakarta",
        "country": "Indonesia",
        "continent": "Asia",
        "size": 10,
        "coordinates": {
            "latitude": -6.2666101456,
            "longitude": 106.8909988403
        }
    },
    {
        "id": "PCB",
        "name": "Pondok Cabe Air Base",
        "city": "Jakarta",
        "country": "Indonesia",
        "continent": "Asia",
        "size": 10,
        "coordinates": {
            "latitude": -6.3369598389,
            "longitude": 106.7649993896
        }
    },
    {
        "id": "KUL",
        "name": "Kuala Lumpur International Airport",
        "city": "Kuala Lumpur",
        "country": "Malaysia",
        "continent": "Asia",
        "size": 7,
        "coordinates": {
            "latitude": 2.745579958,
            "longitude": 101.7099990845
        }
    },
    {
        "id": "AVV",
        "name": "Avalon Airport",
        "city": "Melbourne",
        "country": "Australia",
        "continent": "Asia",
        "size": 5,
        "coordinates": {
            "latitude": -38.0393981934,
            "longitude": 144.468994141
        }
    },
    {
        "id": "MBW",
        "name": "Melbourne Moorabbin Airport",
        "city": "Melbourne",
        "country": "Australia",
        "continent": "Australia",
        "size": 5,
        "coordinates": {
            "latitude": -37.9757995605,
            "longitude": 145.1020050049
        }
    },
    {
        "id": "BWU",
        "name": "Sydney Bankstown Airport",
        "city": "Sydney",
        "country": "Australia",
        "continent": "Australia",
        "size": 5,
        "coordinates": {
            "latitude": -33.9244003296,
            "longitude": 150.9880065918
        }
    },
    {
        "id": "TSN",
        "name": "Tianjin Binhai International Airport",
        "city": "Tianjin",
        "country": "China",
        "continent": "Asia",
        "size": 11,
        "coordinates": {
            "latitude": 39.1244010925,
            "longitude": 117.346000671
        }
    },
    {
        "id": "FUO",
        "name": "Foshan Shadi Airport",
        "city": "Foshan",
        "country": "China",
        "continent": "Asia",
        "size": 7,
        "coordinates": {
            "latitude": 23.0832996368,
            "longitude": 113.069999695
        }
    },
    {
        "id": "CGO",
        "name": "Xinzheng Airport",
        "city": "Zhengzhou",
        "country": "China",
        "continent": "Asia",
        "size": 5,
        "coordinates": {
            "latitude": 34.5196990967,
            "longitude": 113.841003418
        }
    },
    {
        "id": "WUH",
        "name": "Wuhan Tianhe International Airport",
        "city": "Wuhan",
        "country": "China",
        "continent": "Asia",
        "size": 8,
        "coordinates": {
            "latitude": 30.7838001251,
            "longitude": 114.2080001831
        }
    },
    {
        "id": "XMN",
        "name": "Xiamen Gaoqi International Airport",
        "city": "Xiamen",
        "country": "China",
        "continent": "Asia",
        "size": 5,
        "coordinates": {
            "latitude": 24.5440006256,
            "longitude": 118.1279983521
        }
    },
    {
        "id": "HGH",
        "name": "Hangzhou Xiaoshan International Airport",
        "city": "Hangzhou",
        "country": "China",
        "continent": "Asia",
        "size": 6,
        "coordinates": {
            "latitude": 30.2294998169,
            "longitude": 120.4339981079
        }
    },
    {
        "id": "TNA",
        "name": "Yaoqiang Airport",
        "city": "Jinan",
        "country": "China",
        "continent": "Asia",
        "size": 5,
        "coordinates": {
            "latitude": 36.8572006226,
            "longitude": 117.216003418
        }
    },
    {
        "id": "NKG",
        "name": "Nanjing Lukou Airport",
        "city": "Nanjing",
        "country": "China",
        "continent": "Asia",
        "size": 7,
        "coordinates": {
            "latitude": 31.7420005798,
            "longitude": 118.8619995117
        }
    },
    {
        "id": "TAO",
        "name": "Liuting Airport",
        "city": "Qingdao",
        "country": "China",
        "continent": "Asia",
        "size": 5,
        "coordinates": {
            "latitude": 36.2661018372,
            "longitude": 120.374000549
        }
    },
    {
        "id": "SHA",
        "name": "Shanghai Hongqiao International Airport",
        "city": "Shanghai",
        "country": "China",
        "continent": "Asia",
        "size": 23,
        "coordinates": {
            "latitude": 31.1979007721,
            "longitude": 121.3359985352
        }
    },
    {
        "id": "SZV",
        "name": "Guangfu Airport",
        "city": "Suzhou",
        "country": "China",
        "continent": "Asia",
        "size": 6,
        "coordinates": {
            "latitude": 31.2630996704,
            "longitude": 120.4010009766
        }
    },
    {
        "id": "CKG",
        "name": "Chongqing Jiangbei International Airport",
        "city": "Chongqing",
        "country": "China",
        "continent": "Asia",
        "size": 13,
        "coordinates": {
            "latitude": 29.7192001343,
            "longitude": 106.641998291
        }
    },
    {
        "id": "JIQ",
        "name": "Qianjiang Wulingshan Airport",
        "city": "Chongqing",
        "country": "China",
        "continent": "Asia",
        "size": 13,
        "coordinates": {
            "latitude": 29.514559,
            "longitude": 108.83371499999998
        }
    },
    {
        "id": "CTU",
        "name": "Chengdu Shuangliu International Airport",
        "city": "Chengdu",
        "country": "China",
        "continent": "Asia",
        "size": 8,
        "coordinates": {
            "latitude": 30.5785007477,
            "longitude": 103.9469985962
        }
    },
    {
        "id": "HRB",
        "name": "Taiping Airport",
        "city": "Harbin",
        "country": "China",
        "continent": "Asia",
        "size": 6,
        "coordinates": {
            "latitude": 45.6234016418,
            "longitude": 126.25
        }
    },
    {
        "id": "DLC",
        "name": "Zhoushuizi Airport",
        "city": "Dalian",
        "country": "China",
        "continent": "Asia",
        "size": 5,
        "coordinates": {
            "latitude": 38.9656982422,
            "longitude": 121.5390014648
        }
    },
    {
        "id": "SHE",
        "name": "Taoxian Airport",
        "city": "Shenyang",
        "country": "China",
        "continent": "Asia",
        "size": 6,
        "coordinates": {
            "latitude": 41.6398010254,
            "longitude": 123.483001709
        }
    }
]
