[
  {
    "id": "DAL",
    "name": "Dallas Love Field",
    "city": "Dallas",
    "country": "United States of America",
    "continent": "North America",
    "size": 7,
    "coordinates": {
      "latitude": 32.848308,
      "longitude": -96.851550
    }
  },
  {
    "id": "LAX",
    "name": "Los Angeles International Airport",
    "city": "Los Angeles",
    "country": "United States of America",
    "continent": "North America",
    "size": 18,
    "coordinates": {
      "latitude": 33.941589,
      "longitude": -118.408541
    }
  },
  {
    "id": "JFK",
    "name": "John F. Kennedy International Airport",
    "city": "New York City",
    "country": "United States of America",
    "continent": "North America",
    "size": 24,
    "coordinates": {
      "latitude": 40.6413111,
      "longitude": -73.7781391
    }
  },
  {
    "id": "MEX",
    "name": "Mexico City International Airport",
    "city": "Mexico City",
    "country": "Mexico",
    "continent": "North America",
    "size": 20,
    "coordinates": {
      "latitude": 19.4360762,
      "longitude": -99.074097
    }
  },
  {
    "id": "YYZ",
    "name": "Toronto Pearson International Airport",
    "city": "Toronto",
    "country": "Canada",
    "continent": "North America",
    "size": 6,
    "coordinates": {
      "latitude": 43.6777176,
      "longitude": -79.6270084
    }
  },
  {
    "id": "BOG",
    "name": "El Dorado International Airport",
    "city": "Bogota",
    "country": "Colombia",
    "continent": "South America",
    "size": 10,
    "coordinates": {
      "latitude": 4.6989653,
      "longitude": -74.1437703
    }
  },
  {
    "id": "SDU",
    "name": "Santos Dumont Airport",
    "city": "Rio de Janeiro",
    "country": "Brazil",
    "continent": "South America",
    "size": 12,
    "coordinates": {
      "latitude": -22.9111438,
      "longitude": -43.1670642
    }
  },
  {
    "id": "LIM",
    "name": "Jorge Chavez International Airport",
    "city": "Lima",
    "country": "Peru",
    "continent": "South America",
    "size": 10,
    "coordinates": {
      "latitude": -12.0240527,
      "longitude": -77.1142247
    }
  },
  {
    "id": "SCL",
    "name": "Santiago International Airport",
    "city": "Santiago",
    "country": "Chile",
    "continent": "South America",
    "size": 7,
    "coordinates": {
      "latitude": -33.3967262,
      "longitude": -70.7957537
    }
  },
  {
    "id": "LHR",
    "name": "Heathrow Airport",
    "city": "London",
    "country": "England",
    "continent": "Europe",
    "size": 14,
    "coordinates": {
      "latitude": 51.4700223,
      "longitude": -0.4564842
    }
  },
  {
    "id": "CDG",
    "name": "Paris Charles de Gaulle Airport",
    "city": "Paris",
    "country": "France",
    "continent": "Europe",
    "size": 12,
    "coordinates": {
      "latitude": 49.0096906,
      "longitude": 2.5457358
    }
  },
  {
    "id": "IST",
    "name": "Istanbul Ataturk Airport",
    "city": "Istanbul",
    "country": "Turkey",
    "continent": "Europe",
    "size": 14,
    "coordinates": {
      "latitude": 40.9829888,
      "longitude": 28.8082538
    }
  },
  {
    "id": "SVO",
    "name": "Sheremetyevo International Airport",
    "city": "Moscow",
    "country": "Russia",
    "continent": "Europe",
    "size": 17,
    "coordinates": {
      "latitude": 55.9736482,
      "longitude": 37.4103142
    }
  },
  {
    "id": "AMS",
    "name": "Amsterdam Airport Schiphol",
    "city": "Amsterdam",
    "country": "Netherlands",
    "continent": "Europe",
    "size": 3,
    "coordinates": {
      "latitude": 52.3255264,
      "longitude": 4.6872439
    }
  },
  {
    "id": "MAD",
    "name": "Adolfo Suarez Madrid–Barajas Airport",
    "city": "Madrid",
    "country": "Spain",
    "continent": "Europe",
    "size": 6,
    "coordinates": {
      "latitude": 40.4839361,
      "longitude": -3.5701402
    }
  },
  {
    "id": "HND",
    "name": "Tokyo International Airport",
    "city": "Tokyo",
    "country": "Japan",
    "continent": "Asia",
    "size": 38,
    "coordinates": {
      "latitude": 35.5493932,
      "longitude": 139.7776499
    }
  },
  {
    "id": "KHI",
    "name": "Jinnah International Airport",
    "city": "Karachi",
    "country": "Pakistan",
    "continent": "Asia",
    "size": 24,
    "coordinates": {
      "latitude": 24.900457,
      "longitude": 67.1659709
    }
  },
  {
    "id": "ICN",
    "name": "Incheon International Airport",
    "city": "Seoul",
    "country": "South Korea",
    "continent": "Asia",
    "size": 26,
    "coordinates": {
      "latitude": 37.4601908,
      "longitude": 126.438507
    }
  },
  {
    "id": "PVG",
    "name": "Shanghai Pudong International Airport",
    "city": "Shanghai",
    "country": "China",
    "continent": "Asia",
    "size": 34,
    "coordinates": {
      "latitude": 31.1443439,
      "longitude": 121.8060843
    }
  },
  {
    "id": "DEL",
    "name": "Indira Gandhi International Airport",
    "city": "New Delhi",
    "country": "India",
    "continent": "Asia",
    "size": 22,
    "coordinates": {
      "latitude": 28.5561624,
      "longitude": 77.0977691
    }
  },
  {
    "id": "MNL",
    "name": "Ninoy Aquino International Airport",
    "city": "Manila",
    "country": "Philippines",
    "continent": "Asia",
    "size": 12,
    "coordinates": {
      "latitude": 14.5122739,
      "longitude": 121.0143193
    }
  },
  {
    "id": "CGK",
    "name": "Soekarno–Hatta International Airport",
    "city": "Jakarta",
    "country": "Indonesia",
    "continent": "Asia",
    "size": 10,
    "coordinates": {
      "latitude": -6.1204706,
      "longitude": 106.6579084
    }
  },
  {
    "id": "LOS",
    "name": "Murtala Muhammed International Airport",
    "city": "Lagos",
    "country": "Nigeria",
    "continent": "Africa",
    "size": 25,
    "coordinates": {
      "latitude": 6.5818185,
      "longitude": 3.3189461
    }
  },
  {
    "id": "CAI",
    "name": "Cairo International Airport",
    "city": "Cairo",
    "country": "Egypt",
    "continent": "Africa",
    "size": 20,
    "coordinates": {
      "latitude": 30.111389,
      "longitude": 31.4117003
    }
  },
  {
    "id": "JNB",
    "name": "O. R. Tambo International Airport",
    "city": "Johannesburg",
    "country": "South Africa",
    "continent": "Africa",
    "size": 4,
    "coordinates": {
      "latitude": -26.1366728,
      "longitude": 28.2389572
    }
  },
  {
    "id": "SYD",
    "name": "Sydney Airport",
    "city": "Sydney",
    "country": "Australia",
    "continent": "Australia",
    "size": 5,
    "coordinates": {
      "latitude": -33.9399228,
      "longitude": 151.1730877
    }
  },
  {
    "id": "MEL",
    "name": "Melbourne Airport",
    "city": "Melbourne",
    "country": "Australia",
    "continent": "Australia",
    "size": 4,
    "coordinates": {
      "latitude": -37.6690123,
      "longitude": 144.8388386
    }
  },
  {
    "id": "BNE",
    "name": "Brisbane Airport",
    "city": "Brisbane",
    "country": "Australia",
    "continent": "Australia",
    "size": 2,
    "coordinates": {
      "latitude": -27.3942144,
      "longitude": 153.1196416
    }
  }
]
